STOP_ID,BUFFER_AREA_SQMI,STOP_NAME,WKDAY_ON,WKDAY_OFF,WKDAY_TOTAL,WKDY_TOTAL_Log,WKDAY_TRIPS,ON_PER_TRIP,TOTAL_PER_TRIP,SAT_ON,SAT_OFF,SAT_TOTAL,Y,X,TOTALPOP,TOTALJOBS,WKDAY_TRIPS,JOB_POP_SQMI,POP_SQMI,JOBS_SQMI,JOB_POP_SQMI
17024,0.196147739,N Reserve St & England Blvd,2,2,4,0.602059991,2,1,2,0,0,0,46.89403229,-114.040944,233,184,2,186,1188,938,2126
17115,0.196147739,Expressway & Canyon Creek Blvd,1,0,1,0,2,0.5,0.5,0,0,0,46.915297,-114.06393,104,56,2,58,530,285,815
17139,0.196147739,N Reserve St & Expressway,1,2,3,0.477121255,2,0.5,1.5,0,0,0,46.904863,-114.039226,215,238,2,240,1096,1213,2309
17230,0.196147739,Airway Blvd & Harrier Dr,0,2,2,0.301029996,2,0,1,0,0,0,46.92152292,-114.068811,60,56,2,58,306,285,591
17368,0.196147739,Majestic Dr & Wheeler Dr,3,0,3,0.477121255,2,1.5,1.5,0,0,0,46.91407453,-114.057115,169,56,2,58,862,285,1147
17391,0.196147739,Expressway at the Crestview Apartments,2,0,2,0.301029996,2,1,1,0,0,0,46.907887,-114.052233,276,56,2,58,1407,285,1692
17418,0.196147739,Harrier Dr & TechNology Way,1,1,2,0.301029996,2,0.5,1,0,0,0,46.91960506,-114.065524,60,56,2,58,306,285,591
18005,0.196147739,Aviation Way & Liquid Planet,5,1,6,0.77815125,6,0.83,1,0,0,0,46.92069103,-114.08243,60,56,6,62,306,285,591
17018,0.196147739,S 3rd St W & S Inez St,0,0,1,0,6,0,0.17,0,0,0,46.86708552,-114.016142,1048,383,6,389,5343,1953,7296
17023,0.196147739,S 3rd St W & Darlene Dr,1,0,1,0,6,0.17,0.17,0,0,0,46.8668337,-114.037188,924,171,6,177,4711,872,5583
17025,0.196147739,S 3rd St W & S Grove St,1,1,2,0.301029996,6,0.17,0.33,0,0,0,46.86685751,-114.042598,447,115,6,121,2279,586,2865
17026,0.196147739,S 3rd St W & S Grove St,1,2,2,0.301029996,6,0.17,0.33,0,0,0,46.86696816,-114.042743,432,114,6,120,2202,581,2783
17031,0.196147739,Connery Way & Chelsea Dr,0,3,3,0.477121255,6,0,0.5,0,0,0,46.8932644,-114.046175,276,56,6,62,1407,285,1692
17041,0.196147739,South Ave W & Clements Rd,4,1,4,0.602059991,6,0.67,0.67,0,0,0,46.84867431,-114.080456,136,88,6,94,693,449,1142
17048,0.196147739,S 7th St W & Howard St,1,1,1,0,6,0.17,0.17,0,0,0,46.86320796,-114.073957,190,88,6,94,969,449,1418
17059,0.196147739,Harrier Dr & Technology Way,2,2,4,0.602059991,6,0.33,0.67,0,0,0,46.91970363,-114.065389,60,56,6,62,306,285,591
17061,0.196147739,S 3rd St W & Hiberta St,1,4,4,0.602059991,6,0.17,0.67,0,0,0,46.86663623,-114.052794,239,88,6,94,1218,449,1667
17062,0.196147739,S 7th St W & Grace Ct,0,0,0,0,6,0,0,0,0,0,46.863265,-114.067417,198,88,6,94,1009,449,1458
17073,0.196147739,S 3rd St W & Cottonwood St,0,1,2,0.301029996,6,0,0.33,0,0,0,46.86692177,-114.004735,915,440,6,446,4665,2243,6908
17085,0.196147739,S 3rd St W & Short St,0,1,1,0,6,0,0.17,0,0,0,46.86686599,-114.047216,231,88,6,94,1178,449,1627
17094,0.196147739,South Ave W & 37th Ave,0,0,0,0,6,0,0,0,0,0,46.84867716,-114.07078,168,88,6,94,856,449,1305
17095,0.196147739,S 7th St W & Gladis Dr,0,0,0,0,6,0,0,0,0,0,46.86341245,-114.057212,334,88,6,94,1703,449,2152
17099,0.196147739,Majestic Dr & Wheeler Dr,4,5,9,0.954242509,6,0.67,1.5,0,0,0,46.9141869,-114.057107,165,56,6,62,841,285,1126
17104,0.196147739,S 3rd St W & Walnut St,0,0,0,0,6,0,0,0,0,0,46.86710131,-114.008259,1015,441,6,447,5175,2248,7423
17113,0.196147739,S 3rd St W & S California St,1,1,1,0,6,0.17,0.17,0,0,0,46.86693208,-114.013599,1073,437,6,443,5470,2228,7698
17118,0.196147739,Expressway at the Crestview Apartments,2,3,5,0.698970004,6,0.33,0.83,0,0,0,46.90813921,-114.052257,276,56,6,62,1407,285,1692
17125,0.196147739,Clements Rd & S 7th St W,1,1,2,0.301029996,6,0.17,0.33,0,0,0,46.86317699,-114.080581,163,88,6,94,831,449,1280
17129,0.196147739,South Ave W & 35th Ave,0,0,0,0,6,0,0,0,0,0,46.84879797,-114.066049,171,88,6,94,872,449,1321
17149,0.196147739,Hiberta St & James St,0,0,0,0,6,0,0,0,0,0,46.86489623,-114.052592,300,88,6,94,1529,449,1978
17156,0.196147739,Clements Rd & Colonial Ln,2,3,5,0.698970004,6,0.33,0.83,0,0,0,46.85075,-114.081555,153,88,6,94,780,449,1229
17160,0.196147739,Clements Rd & Spurgin Rd,0,1,1,0,6,0,0.17,0,0,0,46.85952688,-114.081556,187,88,6,94,953,449,1402
17164,0.196147739,S 7th St W & Gladis Dr,0,0,0,0,6,0,0,0,0,0,46.86331799,-114.057079,335,88,6,94,1708,449,2157
17169,0.196147739,Connery Way & American Way,1,4,4,0.602059991,6,0.17,0.67,0,0,0,46.89066473,-114.046345,276,56,6,62,1407,285,1692
17172,0.196147739,South Ave W & 37th Ave,0,0,0,0,6,0,0,0,0,0,46.84880099,-114.071316,171,88,6,94,872,449,1321
17177,0.196147739,S 7th St W & Tower St,1,0,1,0,6,0.17,0.17,0,0,0,46.86331742,-114.063017,266,88,6,94,1356,449,1805
17191,0.196147739,Clements Rd & S 7th St W,0,1,2,0.301029996,6,0,0.33,0,0,0,46.86299383,-114.081502,158,88,6,94,806,449,1255
17199,0.196147739,N Reserve St & England Blvd,0,0,1,0,6,0,0.17,0,0,0,46.894489,-114.039099,202,274,6,280,1030,1397,2427
17220,0.196147739,S 7th St W & Howard St,1,1,2,0.301029996,6,0.17,0.33,0,0,0,46.86332281,-114.07366,188,88,6,94,958,449,1407
17231,0.196147739,Expressway & N Reserve St,9,16,25,1.397940009,6,1.5,4.17,0,0,0,46.90574967,-114.040332,237,173,6,179,1208,882,2090
17234,0.196147739,South Ave W & Guardsman Ln,1,3,4,0.602059991,6,0.17,0.67,0,0,0,46.8486281,-114.054106,218,88,6,94,1111,449,1560
17237,0.196147739,S 3rd St W & California St,1,1,1,0,6,0.17,0.17,0,0,0,46.86707015,-114.013216,1075,441,6,447,5481,2248,7729
17243,0.196147739,Hiberta St & James St,0,0,1,0,6,0,0.17,0,0,0,46.86485442,-114.052786,301,88,6,94,1535,449,1984
17276,0.196147739,Hiberta St & S 3rd St W,3,1,3,0.477121255,6,0.5,0.5,0,0,0,46.86683814,-114.052588,232,88,6,94,1183,449,1632
17283,0.196147739,S 3rd St W & Darlene Dr,0,1,2,0.301029996,6,0,0.33,0,0,0,46.86700032,-114.037211,915,171,6,177,4665,872,5537
17291,0.196147739,England Blvd & Tina Ave,0,2,2,0.301029996,6,0,0.33,0,0,0,46.89387977,-114.042234,252,127,6,133,1285,647,1932
17323,0.196147739,Union Pacific & Home Depot,1,4,5,0.698970004,6,0.17,0.83,0,0,0,46.88891699,-114.043484,266,81,6,87,1356,413,1769
17328,0.196147739,S 7th St W & Tower St,0,1,1,0,6,0,0.17,0,0,0,46.86342757,-114.06346,257,88,6,94,1310,449,1759
17330,0.196147739,S 3rd St W & Schilling St,2,1,3,0.477121255,6,0.33,0.5,0,0,0,46.86684761,-114.030997,996,183,6,189,5078,933,6011
17354,0.196147739,Hiberta St & S 7th St W,0,0,0,0,6,0,0,0,0,0,46.863461,-114.052643,333,88,6,94,1698,449,2147
17364,0.196147739,Clements Rd at The Olde Dairy,5,2,8,0.903089987,6,0.83,1.33,0,0,0,46.85074902,-114.081379,156,88,6,94,795,449,1244
17365,0.196147739,Clements Rd & Spurgin Rd,1,1,2,0.301029996,6,0.17,0.33,0,0,0,46.85957399,-114.081358,190,88,6,94,969,449,1418
17376,0.196147739,South Ave W & 35th Ave,0,1,1,0,6,0,0.17,0,0,0,46.84868386,-114.066035,168,88,6,94,856,449,1305
17385,0.196147739,S 3rd St W & S Curtis St,1,2,2,0.301029996,6,0.17,0.33,0,0,0,46.86701356,-114.031433,978,183,6,189,4986,933,5919
17396,0.196147739,S 3rd St W & Prince St,0,1,1,0,6,0,0.17,0,0,0,46.86690488,-114.016662,1054,367,6,373,5374,1871,7245
17397,0.196147739,S 3rd St W & Short St,0,0,0,0,6,0,0,0,0,0,46.86696509,-114.047816,227,88,6,94,1157,449,1606
17402,0.196147739,S 3rd St W & Ash St,0,0,0,0,6,0,0,0,0,0,46.86691006,-114.009738,1061,440,6,446,5409,2243,7652
17414,0.196147739,Airway Blvd & Harrier Dr,2,2,4,0.602059991,6,0.33,0.67,0,0,0,46.92167808,-114.068795,60,56,6,62,306,285,591
17426,0.196147739,Expressway & Canyon Creek Blvd,1,1,3,0.477121255,6,0.17,0.5,0,0,0,46.91556451,-114.064166,97,56,6,62,495,285,780
17455,0.196147739,S 3rd St W & Cottonwood St,2,0,2,0.301029996,6,0.33,0.33,0,0,0,46.86704864,-114.005241,921,441,6,447,4695,2248,6943
17465,0.196147739,South Ave W & 31st Ave,2,3,4,0.602059991,6,0.33,0.67,0,0,0,46.84880009,-114.055814,210,88,6,94,1071,449,1520
17467,0.196147739,England Blvd & N Reserve St,0,2,2,0.301029996,6,0,0.33,0,0,0,46.8938937,-114.040942,233,184,6,190,1188,938,2126
18004,0.196147739,Union Pacific & Great Northern Ave,7,2,8,0.903089987,6,1.17,1.33,0,0,0,46.88888208,-114.036482,161,396,6,402,821,2019,2840
17120,0.196147739,Union Pacific & Home Depot,4,1,5,0.698970004,8,0.5,0.63,0,0,0,46.88876516,-114.043353,262,85,8,93,1336,433,1769
17167,0.196147739,England Blvd & Tina Ave,2,1,3,0.477121255,8,0.25,0.38,0,0,0,46.89401545,-114.04276,260,106,8,114,1326,540,1866
17263,0.196147739,Connery Way & Flanagin Ln,4,1,4,0.602059991,8,0.5,0.5,0,0,0,46.890648,-114.047059,276,56,8,64,1407,285,1692
17348,0.196147739,Connery Way & Chelsea Dr,2,0,2,0.301029996,8,0.25,0.25,0,0,0,46.89327005,-114.046337,276,56,8,64,1407,285,1692
18007,0.196147739,Union Pacific & Great Northern Ave,2,7,8,0.903089987,8,0.25,1,0,0,0,46.88875703,-114.0363,158,404,8,412,806,2060,2866
17001,0.196147739,Highton St & MT Highway 200,4,0,5,0.698970004,11,0.36,0.45,3,1,3,46.868802,-113.948571,258,24,11,35,1315,122,1437
17006,0.196147739,Flagler Rd & Tremper Dr,2,6,7,0.84509804,11,0.18,0.64,1,2,3,46.88298066,-113.89286,215,0,11,11,1096,0,1096
17011,0.196147739,MT Highway 200 & Tamarack Rd,0,4,4,0.602059991,11,0,0.36,0,3,3,46.88133062,-113.9068372,159,1,11,12,811,5,816
17019,0.196147739,1st St & MT Highway 200,3,1,4,0.602059991,11,0.27,0.36,3,0,3,46.87558499,-113.885972,299,0,11,11,1524,0,1524
17027,0.196147739,Staple St & MT Highway 200,2,6,8,0.903089987,11,0.18,0.73,3,6,8,46.87681299,-113.941769,318,24,11,35,1621,122,1743
17042,0.196147739,Staple St & Michigan Ave,0,4,4,0.602059991,11,0,0.36,0,1,1,46.87568611,-113.940293,464,24,11,35,2366,122,2488
17046,0.196147739,Zaugg Dr & Fontaine Dr,1,0,1,0,11,0.09,0.09,1,0,1,46.88136946,-113.902067,146,0,11,11,744,0,744
17053,0.196147739,Speedway Ave & Clyde St,6,1,7,0.84509804,11,0.55,0.64,3,0,4,46.871902,-113.942449,642,24,11,35,3273,122,3395
17056,0.196147739,Tremper Dr & Carol's Way,3,7,10,1,11,0.27,0.91,2,5,7,46.88160928,-113.8931186,270,0,11,11,1377,0,1377
17057,0.196147739,Fontaine Dr & MT Highway 200,0,3,3,0.477121255,11,0,0.27,0,1,2,46.88014799,-113.902154,164,0,11,11,836,0,836
17065,0.196147739,MT Highway 200 & Owen St,1,5,5,0.698970004,11,0.09,0.45,0,4,4,46.87105799,-113.881864,146,0,11,11,744,0,744
17072,0.196147739,Haaglund Dr & Zaugg Dr,2,4,5,0.698970004,11,0.18,0.45,1,1,2,46.87944887,-113.885473,361,0,11,11,1840,0,1840
17136,0.196147739,Fontaine Dr & MT Highway 200,1,0,1,0,11,0.09,0.09,1,0,1,46.880173,-113.902351,164,0,11,11,836,0,836
17138,0.196147739,Speedway Ave & Sommers St,6,1,7,0.84509804,11,0.55,0.64,2,1,2,46.873094,-113.94058,711,24,11,35,3625,122,3747
17150,0.196147739,Staple St & MT Highway 200,11,1,12,1.079181246,11,1,1.09,7,1,8,46.87660658,-113.941723,336,24,11,35,1713,122,1835
17165,0.196147739,MT Highway 200 & Shepard Ln,1,0,1,0,11,0.09,0.09,0,0,0,46.88190118,-113.935526,115,24,11,35,586,122,708
17181,0.196147739,Haaglund Dr & Zaugg Dr,3,0,3,0.477121255,11,0.27,0.27,1,0,1,46.879489,-113.885265,357,0,11,11,1820,0,1820
17227,0.196147739,Staple St & Michigan Ave,1,0,1,0,11,0.09,0.09,1,0,1,46.875767,-113.940604,446,24,11,35,2274,122,2396
17236,0.196147739,Staple St & Speedway Ave,1,3,3,0.477121255,11,0.09,0.27,0,2,2,46.87450848,-113.938734,634,24,11,35,3232,122,3354
17245,0.196147739,E Broadway St at Silvertip Apartments,2,16,18,1.255272505,11,0.18,1.64,2,9,10,46.86363986,-113.971055,148,30,11,41,755,153,908
17249,0.196147739,Speedway Ave & Sommers St,1,6,7,0.84509804,11,0.09,0.64,1,1,2,46.873206,-113.940133,717,24,11,35,3655,122,3777
17256,0.196147739,Flagler Rd & Tremper Dr,5,1,6,0.77815125,11,0.45,0.55,2,0,2,46.88309175,-113.893001,208,0,11,11,1060,0,1060
17259,0.196147739,E Broadway St and Missoula College,2,2,4,0.602059991,11,0.18,0.36,1,0,1,46.86524833,-113.974982,163,30,11,41,831,153,984
17261,0.196147739,MT Highway 200 & White House Ln,3,2,5,0.698970004,11,0.27,0.45,2,1,3,46.87279671,-113.865247,87,0,11,11,444,0,444
17302,0.196147739,1st St & W Riverside Dr,3,0,3,0.477121255,11,0.27,0.27,1,0,1,46.877814,-113.885434,372,0,11,11,1897,0,1897
17309,0.196147739,Flagler Rd & Rams Horn Ln,1,2,3,0.477121255,11,0.09,0.27,1,2,3,46.882359,-113.887973,275,0,11,11,1402,0,1402
17310,0.196147739,Flagler Rd & Sunset Pines Ct,2,1,3,0.477121255,11,0.18,0.27,1,0,1,46.882147,-113.886955,262,0,11,11,1336,0,1336
17318,0.196147739,Zaugg Dr & Tremper Dr,2,6,7,0.84509804,11,0.18,0.64,1,4,5,46.87952829,-113.893759,252,0,11,11,1285,0,1285
17332,0.196147739,E Broadway St at Eastgate Center,20,9,29,1.462397998,11,1.82,2.64,14,6,19,46.868256,-113.981575,491,723,11,734,2503,3686,6189
17333,0.196147739,1st St & MT Highway 200,0,3,3,0.477121255,11,0,0.27,0,2,2,46.875649,-113.88611,299,0,11,11,1524,0,1524
17336,0.196147739,Zaugg Dr at Pine Grove Trailer Park,4,0,4,0.602059991,11,0.36,0.36,2,0,2,46.87965782,-113.8940812,247,0,11,11,1259,0,1259
17338,0.196147739,E Broadway St at Silvertip Apartments,18,2,19,1.278753601,11,1.64,1.73,9,1,10,46.864261,-113.972343,161,30,11,41,821,153,974
17339,0.196147739,MT Highway 200 & Jupiter Ln,4,0,4,0.602059991,11,0.36,0.36,2,0,2,46.88194149,-113.907757,151,1,11,12,770,5,775
17347,0.196147739,MT Highway 200 & Speedway Ave,1,3,3,0.477121255,11,0.09,0.27,1,3,3,46.88195976,-113.93523,112,24,11,35,571,122,693
17351,0.196147739,Speedway Ave & Peacock St,6,0,6,0.77815125,11,0.55,0.55,4,0,4,46.869483,-113.94634,388,24,11,35,1978,122,2100
17353,0.196147739,MT Highway 200 at Bonner School,4,5,9,0.954242509,11,0.36,0.82,2,3,5,46.8698546,-113.872044,93,0,11,11,474,0,474
17357,0.196147739,MT Highway 200 & Anaconda,6,0,6,0.77815125,11,0.55,0.55,3,0,4,46.87084786,-113.881156,144,0,11,11,734,0,734
17362,0.196147739,E Broadway St & Easy St,1,2,3,0.477121255,11,0.09,0.27,0,0,1,46.86434699,-113.953832,15,24,11,35,76,122,198
17372,0.196147739,Speedway Ave & Peacock St,0,6,6,0.77815125,11,0,0.55,1,5,5,46.86959499,-113.945901,411,24,11,35,2095,122,2217
17374,0.196147739,E Broadway St & Easy St,1,0,1,0,11,0.09,0.09,1,0,1,46.86469999,-113.953064,22,24,11,35,112,122,234
17380,0.196147739,MT Highway 200 & Lerch Ln,0,0,0,0,11,0,0,0,0,0,46.8854167,-113.931391,97,24,11,35,495,122,617
17381,0.196147739,Tremper Dr & Half Acre Loop,7,1,8,0.903089987,11,0.64,0.73,5,0,6,46.88181281,-113.8932703,259,0,11,11,1320,0,1320
17395,0.196147739,Speedway Ave & Staple St,4,0,4,0.602059991,11,0.36,0.36,2,0,2,46.874183,-113.938826,666,24,11,35,3395,122,3517
17409,0.196147739,Speedway Ave & Randles St,6,1,7,0.84509804,11,0.55,0.64,4,1,5,46.87068599,-113.944406,527,24,11,35,2687,122,2809
17411,0.196147739,E Broadway St at Cobblestone Subdivision,0,0,0,0,11,0,0,0,0,0,46.86333332,-113.95861,12,24,11,35,61,122,183
17413,0.196147739,Speedway Ave & Randles St,2,8,10,1,11,0.18,0.91,1,4,5,46.87082499,-113.943935,549,24,11,35,2799,122,2921
17429,0.196147739,E Broadway St at MT Tech Enterprise Center,1,1,2,0.301029996,11,0.09,0.18,0,1,1,46.86611733,-113.976717,186,38,11,49,948,194,1142
17436,0.196147739,1st St & W Riverside Dr,2,4,5,0.698970004,11,0.18,0.45,1,3,4,46.877812,-113.885623,369,0,11,11,1881,0,1881
17447,0.196147739,MT Highway 200 & Highton St,1,4,6,0.77815125,11,0.09,0.55,2,3,5,46.868683,-113.948861,241,24,11,35,1229,122,1351
17449,0.196147739,Speedway Ave & Clyde St,0,5,6,0.77815125,11,0,0.55,0,3,4,46.872022,-113.942044,659,24,11,35,3360,122,3482
17466,0.196147739,E Broadway St & Taylor St,2,14,16,1.204119983,11,0.18,1.45,2,9,11,46.86846862,-113.981424,500,701,11,712,2549,3574,6123
17083,0.196147739,Van Buren St & E Broadway St,10,5,15,1.176091259,13,0.77,1.15,5,2,6,46.86887919,-113.982485,585,995,13,1008,2982,5073,8055
17239,0.196147739,S Van Buren St & Willow St,1,1,1,0,12,0.08,0.08,0,1,1,46.87523878,-113.974155,812,32,12,44,4140,163,4303
17294,0.196147739,Van Buren St & Cherry St,1,2,3,0.477121255,12,0.08,0.25,0,1,1,46.87235252,-113.978368,947,32,12,44,4828,163,4991
17327,0.196147739,Van Buren St & Holly St,0,1,1,0,12,0,0.08,0,0,1,46.87684425,-113.971763,581,32,12,44,2962,163,3125
17379,0.196147739,Van Buren St & Elm St,1,6,7,0.84509804,12,0.08,0.58,0,2,2,46.87349599,-113.976684,964,32,12,44,4915,163,5078
17007,0.196147739,Cooper St & N Russell St,0,7,7,0.84509804,13,0,0.54,0,4,4,46.87910377,-114.018327,836,455,13,468,4262,2320,6582
17015,0.196147739,Van Buren St & Cherry St,1,1,2,0.301029996,13,0.08,0.15,1,1,1,46.87189763,-113.979281,914,133,13,146,4660,678,5338
17050,0.196147739,Rattlesnake Dr & Stanely Rd,5,1,6,0.77815125,13,0.38,0.46,3,0,3,46.89305866,-113.965773,280,32,13,45,1427,163,1590
17063,0.196147739,Lincolnwood Rd & Lincoln Rd,0,0,0,0,13,0,0,0,0,0,46.90044875,-113.966015,328,32,13,45,1672,163,1835
17102,0.196147739,Rattlesnake Dr & Khanabad Way,2,2,4,0.602059991,13,0.15,0.31,1,1,1,46.89006755,-113.965545,275,32,13,45,1402,163,1565
17127,0.196147739,Byron St & W Broadway St,7,5,11,1.041392685,13,0.54,0.85,3,3,6,46.87850577,-114.016852,1007,460,13,473,5134,2345,7479
17130,0.196147739,Rattlesnake Dr & Herbert St,0,2,2,0.301029996,13,0,0.15,0,1,1,46.8812305,-113.969716,259,32,13,45,1320,163,1483
17141,0.196147739,Rattlesnake Dr & Lincoln Hills Dr,2,2,4,0.602059991,13,0.15,0.31,1,2,2,46.896278,-113.965561,276,32,13,45,1407,163,1570
17157,0.196147739,Rattlesnake Dr & Dickinson St,6,3,10,1,13,0.46,0.77,1,1,1,46.8889163,-113.965773,278,32,13,45,1417,163,1580
17200,0.196147739,Van Buren St & Willow St,1,1,2,0.301029996,13,0.08,0.15,1,0,1,46.8752284,-113.974414,827,32,13,45,4216,163,4379
17205,0.196147739,Rattlesnake Dr & Brookside Way,2,0,2,0.301029996,13,0.15,0.15,1,0,1,46.89652168,-113.965784,282,32,13,45,1438,163,1601
17226,0.196147739,Rattlesnake Dr & Richard St,2,0,2,0.301029996,13,0.15,0.15,1,0,1,46.88029067,-113.96992,299,32,13,45,1524,163,1687
17229,0.196147739,Lincoln Rd & Lincolnwood,2,2,3,0.477121255,13,0.15,0.23,1,1,2,46.90053698,-113.96584,328,32,13,45,1672,163,1835
17275,0.196147739,Van Buren St & Elm St,4,1,5,0.698970004,13,0.31,0.38,1,0,1,46.87333754,-113.977224,971,32,13,45,4950,163,5113
17289,0.196147739,Rattlesnake Dr & Murray St,0,2,2,0.301029996,13,0,0.15,0,1,1,46.88614999,-113.965577,268,32,13,45,1366,163,1529
17290,0.196147739,Lolo St & Raymond Ave,6,1,7,0.84509804,13,0.46,0.54,3,1,3,46.88485234,-113.96848,249,32,13,45,1269,163,1432
17303,0.196147739,Rattlesnake Dr & Rattlesnake Dr,2,3,5,0.698970004,13,0.15,0.38,1,1,2,46.89918857,-113.965534,307,32,13,45,1565,163,1728
17314,0.196147739,Rattlesnake Dr & Dickinson St,4,9,12,1.079181246,13,0.31,0.92,1,1,2,46.88878219,-113.965582,275,32,13,45,1402,163,1565
17359,0.196147739,Timberlane St & Lincolnwood Rd,1,1,2,0.301029996,13,0.08,0.15,0,0,1,46.90054403,-113.968923,317,32,13,45,1616,163,1779
17366,0.196147739,Van Buren St & Holly St,2,1,3,0.477121255,13,0.15,0.23,0,0,1,46.8765535,-113.972441,632,32,13,45,3222,163,3385
17420,0.196147739,Rattlesnake Dr & Powell St,1,0,1,0,13,0.08,0.08,0,0,0,46.88733654,-113.965768,274,32,13,45,1397,163,1560
17423,0.196147739,Lincoln Rd & Heritage Way,1,0,1,0,13,0.08,0.08,1,1,1,46.903365,-113.96616,351,32,13,45,1789,163,1952
17439,0.196147739,Rattlesnake Dr & Gilbert Ave,1,4,4,0.602059991,13,0.08,0.31,0,3,3,46.883584,-113.967301,258,32,13,45,1315,163,1478
17452,0.196147739,Rattlesnake Dr & Stanely Rd,6,11,17,1.230448921,13,0.46,1.31,3,5,8,46.89310995,-113.965577,276,32,13,45,1407,163,1570
17009,0.196147739,North Ave W & Kemp St,1,1,2,0.301029996,14,0.07,0.14,0,1,1,46.85249778,-114.030495,1358,651,14,665,6923,3319,10242
17016,0.196147739,Eaton St & Mount Ave,0,1,1,0,14,0,0.07,0,0,1,46.85629384,-114.034136,1084,648,14,662,5526,3304,8830
17035,0.196147739,S Catlin St & S 5th St W,6,1,7,0.84509804,14,0.43,0.5,1,1,2,46.86489469,-114.022312,1312,204,14,218,6689,1040,7729
17101,0.196147739,Eaton St & S 10th St W,1,4,4,0.602059991,14,0.07,0.29,0,1,1,46.86044764,-114.034337,1160,364,14,378,5914,1856,7770
17133,0.196147739,Eaton St & Strand Ave,1,2,3,0.477121255,14,0.07,0.21,0,0,1,46.8543648,-114.034337,1224,651,14,665,6240,3319,9559
17147,0.196147739,North Ave W & Eaton St,1,1,1,0,14,0.07,0.07,0,0,1,46.85251989,-114.034091,1397,651,14,665,7122,3319,10441
17148,0.196147739,S 5th St E & Hilda Ave,1,0,1,0,14,0.07,0.07,0,0,0,46.86506848,-113.992371,1297,979,14,993,6612,4991,11603
17151,0.196147739,S Catlin St & S 8th St W,0,3,3,0.477121255,14,0,0.21,0,0,0,46.86261636,-114.022534,1439,212,14,226,7336,1081,8417
17170,0.196147739,S 10th St W & Kemp St,5,2,7,0.84509804,14,0.36,0.5,2,2,3,46.86043929,-114.029669,1189,360,14,374,6062,1835,7897
17173,0.196147739,S 6th St W & Chestnut St,4,5,9,0.954242509,14,0.29,0.64,1,2,3,46.86399441,-114.002238,1149,414,14,428,5858,2111,7969
17185,0.196147739,Eaton St & Strand Ave,4,1,4,0.602059991,14,0.29,0.29,1,1,1,46.85417969,-114.034147,1246,651,14,665,6352,3319,9671
17192,0.196147739,Eaton St & S 12th St W,5,2,7,0.84509804,14,0.36,0.5,1,1,2,46.85835123,-114.034118,1069,534,14,548,5450,2722,8172
17208,0.196147739,S 10th St W & Kemp St,2,3,4,0.602059991,14,0.14,0.29,1,1,2,46.86057654,-114.02989,1197,349,14,363,6103,1779,7882
17214,0.196147739,S 6th St W & S Inez St,4,2,6,0.77815125,14,0.29,0.43,1,1,1,46.86400699,-114.015817,1148,370,14,384,5853,1886,7739
17215,0.196147739,S 5th St W & S Washburn St,1,1,1,0,14,0.07,0.07,0,1,1,46.8649664,-114.020184,1244,256,14,270,6342,1305,7647
17217,0.196147739,S 6th St W & Cottonwood St,3,3,6,0.77815125,14,0.21,0.43,1,2,3,46.86400432,-114.005232,1138,412,14,426,5802,2100,7902
17246,0.196147739,S Catlin St & S 6th St W,1,2,2,0.301029996,14,0.07,0.14,1,0,1,46.86417323,-114.02251,1403,199,14,213,7153,1015,8168
17251,0.196147739,S 10th St W & S Grant St,1,4,5,0.698970004,14,0.07,0.36,0,0,1,46.86055993,-114.026497,1234,332,14,346,6291,1693,7984
17262,0.196147739,S 10th St W & S Johnson St,3,3,7,0.84509804,14,0.21,0.5,1,1,1,46.86058615,-114.028443,1213,343,14,357,6184,1749,7933
17271,0.196147739,S 6th St E & Hilda Ave,0,1,1,0,14,0,0.07,0,0,0,46.863946,-113.992334,1404,643,14,657,7158,3278,10436
17282,0.196147739,S 10th St W & S Catlin St,1,5,6,0.77815125,14,0.07,0.43,0,1,1,46.86054541,-114.022745,1245,339,14,353,6347,1728,8075
17285,0.196147739,S 5th St W & S Russell St,6,2,8,0.903089987,14,0.43,0.57,0,1,1,46.86510849,-114.018139,1180,315,14,329,6016,1606,7622
17319,0.196147739,S 5th St W & Ash St,1,1,3,0.477121255,14,0.07,0.21,1,0,1,46.86508224,-114.009778,1100,424,14,438,5608,2162,7770
17326,0.196147739,S 5th St W & Inez St,0,1,2,0.301029996,14,0,0.14,0,0,0,46.86510357,-114.015925,1130,375,14,389,5761,1912,7673
17342,0.196147739,S 5th St W & Myrtle St,9,2,10,1,14,0.64,0.71,2,0,2,46.86506032,-113.998628,1149,586,14,600,5858,2988,8846
17344,0.196147739,Eaton St & Aspen Grove Loop,3,4,6,0.77815125,14,0.21,0.43,1,0,1,46.85895894,-114.0343167,1090,486,14,500,5557,2478,8035
17349,0.196147739,S 6th St W & Ash St,3,3,5,0.698970004,14,0.21,0.36,1,0,1,46.86401092,-114.009807,1106,412,14,426,5639,2100,7739
17363,0.196147739,Eaton St & Mount Ave,1,2,3,0.477121255,14,0.07,0.21,1,1,1,46.85615612,-114.034319,1085,650,14,664,5532,3314,8846
17370,0.196147739,S Catlin St & S 8th St W,3,0,3,0.477121255,14,0.21,0.21,1,0,1,46.86253374,-114.022316,1426,219,14,233,7270,1117,8387
17394,0.196147739,Eaton St & Emily Ct,4,2,5,0.698970004,14,0.29,0.36,0,1,1,46.86003355,-114.034125,1141,397,14,411,5817,2024,7841
17398,0.196147739,S 10th St W & S Grant St,4,1,5,0.698970004,14,0.29,0.36,0,0,1,46.86044266,-114.026048,1226,341,14,355,6250,1738,7988
17399,0.196147739,S 5th St W & Orange St,2,4,6,0.77815125,14,0.14,0.43,1,1,2,46.86507581,-114.003891,1052,424,14,438,5363,2162,7525
17416,0.196147739,S 6th St E & Gerald Ave,2,7,9,0.954242509,14,0.14,0.64,1,2,3,46.8639442,-113.9956559,1344,554,14,568,6852,2824,9676
17417,0.196147739,S 6th St W & Ivy St,3,1,4,0.602059991,14,0.21,0.29,1,2,2,46.86398692,-114.012814,1081,412,14,426,5511,2100,7611
17422,0.196147739,S 5th St W & S Washburn St,0,3,3,0.477121255,14,0,0.21,0,1,1,46.86509893,-114.02091,1250,237,14,251,6373,1208,7581
17444,0.196147739,S 5th St W & Ivy St,1,2,3,0.477121255,14,0.07,0.21,1,0,1,46.86511488,-114.01276,1082,424,14,438,5516,2162,7678
17446,0.196147739,S 10th St W & S Catlin St,6,1,7,0.84509804,14,0.43,0.5,1,1,1,46.86042937,-114.022689,1231,347,14,361,6276,1769,8045
17450,0.196147739,North Ave W & Kemp St,0,1,1,0,14,0,0.07,0,0,0,46.85238583,-114.029741,1321,651,14,665,6735,3319,10054
17464,0.196147739,S 5th St E & Gerald Ave,1,0,1,0,14,0.07,0.07,0,0,0,46.86506307,-113.995668,1235,817,14,831,6296,4165,10461
18009,0.196147739,S 5th St W & Hickory St,0,2,2,0.301029996,14,0,0.14,0,1,1,46.86507616,-114.006945,1086,424,14,438,5537,2162,7699
17437,0.196147739,Missoula International Airport,10,12,22,1.342422681,10,1,2.2,0,0,0,46.91906977,-114.083309,60,56,10,66,306,285,591
17022,0.196147739,Whitaker Dr & High Park Way,2,5,7,0.84509804,17,0.12,0.41,1,1,2,46.83240388,-114.003676,425,8,17,25,2167,41,2208
17033,0.196147739,Whitaker Dr & W Crestline Dr,0,1,1,0,17,0,0.06,0,0,0,46.83562012,-114.003084,482,16,17,33,2457,82,2539
17039,0.196147739,High Park Way & Artemos Dr,0,1,1,0,17,0,0.06,0,0,0,46.83231798,-114.009778,361,8,17,25,1840,41,1881
17079,0.196147739,Pattee Canyon Dr & Whitaker Dr,0,3,3,0.477121255,17,0,0.18,0,0,0,46.84076472,-113.994543,698,256,17,273,3559,1305,4864
17112,0.196147739,39th St & Paxson St,1,8,9,0.954242509,17,0.06,0.53,1,2,2,46.8343481,-114.02867,1054,354,17,371,5374,1805,7179
17114,0.196147739,S Higgins Ave & Benton Ave,1,2,3,0.477121255,17,0.06,0.18,1,2,2,46.84527787,-113.997504,902,528,17,545,4599,2692,7291
17122,0.196147739,Whitaker Dr & Westview Dr,0,1,1,0,17,0,0.06,0,0,0,46.83974379,-113.997057,595,131,17,148,3033,668,3701
17137,0.196147739,39th St & Lux Dr,1,2,3,0.477121255,17,0.06,0.18,0,0,1,46.83435654,-114.025233,1055,354,17,371,5379,1805,7184
17163,0.196147739,High Park Way & 39th St,0,5,5,0.698970004,17,0,0.29,0,1,1,46.83441399,-114.012675,512,168,17,185,2610,856,3466
17204,0.196147739,39th St at Albertson's,3,7,10,1,17,0.18,0.59,2,2,4,46.83449777,-114.016177,662,258,17,275,3375,1315,4690
17219,0.196147739,S Higgins Ave & Agnes Ave,1,4,5,0.698970004,17,0.06,0.29,1,2,3,46.84323373,-113.997422,829,433,17,450,4226,2208,6434
17228,0.196147739,Whitaker Dr & 39th St,1,2,3,0.477121255,17,0.06,0.18,0,1,1,46.83408648,-114.00369,449,8,17,25,2289,41,2330
17241,0.196147739,39th St & Pittman Dr,1,3,4,0.602059991,17,0.06,0.24,0,1,1,46.83436754,-114.020233,913,327,17,344,4655,1667,6322
17280,0.196147739,39th St & Thomas Dr,1,3,4,0.602059991,17,0.06,0.24,0,1,1,46.83430688,-114.034532,1021,334,17,351,5205,1703,6908
17325,0.196147739,Whitaker Dr & Artemos Dr,0,3,3,0.477121255,17,0,0.18,0,1,1,46.8375208,-114.000872,517,41,17,58,2636,209,2845
17358,0.196147739,S Higgins Ave & Livingston St,2,2,3,0.477121255,17,0.12,0.18,1,2,2,46.84776536,-113.997434,905,529,17,546,4614,2697,7311
17388,0.196147739,High Park Way & Parkview Way,1,1,2,0.301029996,17,0.06,0.12,0,1,1,46.83239806,-114.006083,396,8,17,25,2019,41,2060
17049,0.196147739,Whitaker Dr & Westview Dr,1,0,1,0,18,0.06,0.06,0,0,0,46.83984745,-113.996451,607,146,18,164,3095,744,3839
17080,0.196147739,39th St & Wapikya Dr,4,2,6,0.77815125,18,0.22,0.33,1,1,1,46.83421131,-114.020043,903,319,18,337,4604,1626,6230
17098,0.196147739,S Higgins Ave & Agnes Ave,8,1,9,0.954242509,18,0.44,0.5,5,1,6,46.843573,-113.997204,850,459,18,477,4333,2340,6673
17155,0.196147739,39th St & 21st Ave,5,0,5,0.698970004,18,0.28,0.28,2,0,2,46.83416931,-114.030911,1076,354,18,372,5486,1805,7291
17161,0.196147739,Whitaker Dr & Westview Dr,7,3,10,1,18,0.39,0.56,2,1,3,46.83328648,-114.003487,440,8,18,26,2243,41,2284
17168,0.196147739,Whitaker Dr & Artemos Dr,3,0,3,0.477121255,18,0.17,0.17,1,0,1,46.83767199,-114.00045,513,36,18,54,2615,184,2799
17201,0.196147739,High Park Way & Parkview Way,2,0,3,0.477121255,18,0.11,0.17,0,0,0,46.83234141,-114.006665,387,8,18,26,1973,41,2014
17202,0.196147739,High Park Way & 39th St,4,2,5,0.698970004,18,0.22,0.28,1,0,1,46.83420032,-114.01268,496,152,18,170,2529,775,3304
17265,0.196147739,SW Higgins Ave & High Park Way,5,3,8,0.903089987,18,0.28,0.44,2,1,3,46.83447013,-114.015044,601,229,18,247,3064,1167,4231
17279,0.196147739,S Higgins Ave & Livingston Ave,0,4,5,0.698970004,18,0,0.28,0,1,1,46.84766151,-113.997305,906,529,18,547,4619,2697,7316
17296,0.196147739,Whitaker Dr & E Crestline Dr,0,0,0,0,18,0,0,0,0,0,46.83585899,-114.002643,489,19,18,37,2493,97,2590
17315,0.196147739,39th St & Arrrowhead Dr,2,1,3,0.477121255,18,0.11,0.17,1,0,1,46.83419381,-114.024127,1076,354,18,372,5486,1805,7291
17322,0.196147739,39th St & Barbara Ln,3,3,6,0.77815125,18,0.17,0.33,1,2,3,46.83413577,-114.034478,1043,333,18,351,5317,1698,7015
17337,0.196147739,Pullman St & Scott St,0,12,12,1.079181246,19,0,0.63,0,7,7,46.89030356,-114.006138,503,390,19,409,2564,1988,4552
17361,0.196147739,Whitaker Dr & 39th St,0,0,0,0,18,0,0,0,0,0,46.83421216,-114.003494,453,8,18,26,2309,41,2350
17371,0.196147739,Scott St & Turner St,7,10,16,1.204119983,19,0.37,0.84,2,2,4,46.88623869,-114.00617,711,465,19,484,3625,2371,5996
17404,0.196147739,Pattee Canyon Dr & Hillcrest Loop,4,0,4,0.602059991,18,0.22,0.22,0,0,0,46.84093416,-113.994447,710,271,18,289,3620,1382,5002
17412,0.196147739,39th St & Virginia Dr,3,1,4,0.602059991,18,0.17,0.22,1,0,1,46.83418066,-114.028829,1075,354,18,372,5481,1805,7286
17432,0.196147739,23rd St & Cloverdale Dr,1,0,1,0,18,0.06,0.06,0,0,0,46.83264009,-114.035243,1151,302,18,320,5868,1540,7408
17443,0.196147739,High Park Way & Simons Dr,0,0,0,0,18,0,0,0,0,0,46.83239999,-114.009362,364,8,18,26,1856,41,1897
17456,0.196147739,S Higgins Ave & Benton Ave,5,0,5,0.698970004,18,0.28,0.28,17,11,28,46.8450363,-113.997231,903,528,18,546,4604,2692,7296
17468,0.196147739,39th St & Lake Pl,1,0,1,0,18,0.06,0.06,0,0,0,46.83413169,-114.03322,1072,350,18,368,5465,1784,7249
17005,0.196147739,Gharrett St & 55th St,0,4,4,0.602059991,19,0,0.21,0,2,2,46.82042888,-114.043034,533,40,19,59,2717,204,2921
17071,0.196147739,55th St & Ebb Way,2,3,5,0.698970004,19,0.11,0.26,1,2,3,46.81983811,-114.035671,756,130,19,149,3854,663,4517
17111,0.196147739,23rd St at Meadow Hill Path,1,2,3,0.477121255,19,0.05,0.16,0,1,1,46.83138821,-114.035245,1167,292,19,311,5950,1489,7439
17131,0.196147739,N Dickens St & Rodgers St,21,0,21,1.322219295,19,1.11,1.11,10,0,10,46.88911399,-114.003279,500,377,19,396,2549,1922,4471
17187,0.196147739,Gharrett St & Garland Dr,1,1,2,0.301029996,19,0.05,0.11,0,0,0,46.82825921,-114.043037,569,44,19,63,2901,224,3125
17197,0.196147739,Gharrett St & 39th St,3,3,6,0.77815125,19,0.16,0.32,2,3,5,46.83382677,-114.042983,451,61,19,80,2299,311,2610
17235,0.196147739,23rd St & Hillside Dr,4,5,9,0.954242509,19,0.21,0.47,3,4,7,46.82775963,-114.035354,876,252,19,271,4466,1285,5751
17266,0.196147739,N 5th St W & Butte Ave,7,5,11,1.041392685,19,0.37,0.58,2,0,2,46.88314799,-113.996465,587,361,19,380,2993,1840,4833
17267,0.196147739,N Orange St & N 2nd St W ,5,4,9,0.954242509,19,0.26,0.47,2,2,3,46.87901582,-113.994124,622,852,19,871,3171,4344,7515
17272,0.196147739,Stoddard St & Holmes St,6,4,9,0.954242509,19,0.32,0.47,2,1,3,46.88387218,-114.000088,743,465,19,484,3788,2371,6159
17277,0.196147739,N Dickens St & Palmer St,5,4,9,0.954242509,19,0.26,0.47,3,2,5,46.88678453,-114.0033094,649,465,19,484,3309,2371,5680
17288,0.196147739,23rd St & 55th St,13,11,23,1.361727836,19,0.68,1.21,3,3,6,46.8208208,-114.033114,686,207,19,226,3497,1055,4552
17293,0.196147739,23rd St & Garland Dr,1,1,3,0.477121255,19,0.05,0.16,0,0,1,46.82692699,-114.035561,804,245,19,264,4099,1249,5348
17295,0.196147739,Gharrett St & Southhills Dr,4,2,5,0.698970004,19,0.21,0.26,0,0,1,46.82621288,-114.043041,569,44,19,63,2901,224,3125
17300,0.196147739,23rd St & Valley View Dr,0,0,1,0,19,0,0.05,0,0,1,46.82527715,-114.035825,737,238,19,257,3757,1213,4970
17317,0.196147739,N Dickens St & Cooley St,7,3,9,0.954242509,19,0.37,0.47,3,1,5,46.88461066,-114.003333,762,465,19,484,3885,2371,6256
17335,0.196147739,Gharrett St & Briggs St,1,1,2,0.301029996,19,0.05,0.11,0,0,1,46.83035928,-114.043008,572,44,19,63,2916,224,3140
17356,0.196147739,23rd St & W Foothills Dr,9,5,13,1.113943352,19,0.47,0.68,3,2,5,46.82325302,-114.035327,719,257,19,276,3666,1310,4976
17407,0.196147739,23rd St & E Vista Dr,2,2,3,0.477121255,19,0.11,0.16,1,1,2,46.82163844,-114.0354,736,206,19,225,3752,1050,4802
17410,0.196147739,Gharrett St & Anthony Ln,0,2,2,0.301029996,19,0,0.11,0,0,0,46.82274234,-114.043082,565,44,19,63,2880,224,3104
17419,0.196147739,N 5th St W & N 4th St W,1,1,2,0.301029996,19,0.05,0.11,1,0,1,46.88105185,-113.994133,522,317,19,336,2661,1616,4277
17427,0.196147739,55th St & Bridger Ct,3,0,3,0.477121255,19,0.16,0.16,2,0,2,46.81973705,-114.040872,634,59,19,78,3232,301,3533
17021,0.196147739,Stephens Ave & Kensington Ave,1,5,6,0.77815125,20,0.05,0.3,0,2,2,46.85316527,-114.013206,812,501,20,521,4140,2554,6694
17090,0.196147739,Stephens Ave & W Harlem St,11,5,16,1.204119983,20,0.55,0.8,3,3,6,46.85727299,-114.011566,1060,418,20,438,5404,2131,7535
17093,0.196147739,S Orange St & S 3rd St W,3,5,8,0.903089987,20,0.15,0.4,1,1,3,46.86638389,-114.003634,929,436,20,456,4736,2223,6959
17096,0.196147739,Stephens Ave & W Addison St,6,13,20,1.301029996,20,0.3,1,2,4,6,46.85806697,-114.010948,1125,402,20,422,5735,2049,7784
17110,0.196147739,Stephens Ave & W Crosby St,4,9,12,1.079181246,20,0.2,0.6,2,2,3,46.860825,-114.007119,1226,383,20,403,6250,1953,8203
17117,0.196147739,36th St & Dore Ln,7,1,8,0.903089987,20,0.35,0.4,2,1,3,46.83655024,-114.03529,755,353,20,373,3849,1800,5649
17119,0.196147739,S Orange St & S 5th St W,13,7,20,1.301029996,20,0.65,1,4,4,7,46.86471999,-114.00339,1079,420,20,440,5501,2141,7642
17142,0.196147739,Paxson St & McDonald Ave,5,3,7,0.84509804,20,0.25,0.35,2,1,3,46.839886,-114.028855,731,440,20,460,3727,2243,5970
17162,0.196147739,Stephens Ave & E Bickford St,10,3,13,1.113943352,20,0.5,0.65,4,1,5,46.85909999,-114.00901,1227,386,20,406,6255,1968,8223
17171,0.196147739,Paxson St & 34th St,4,1,5,0.698970004,20,0.2,0.25,0,0,1,46.838029,-114.028841,729,379,20,399,3717,1932,5649
17188,0.196147739,Stephens Ave & Central Ave,8,17,26,1.414973348,20,0.4,1.3,3,6,9,46.85082777,-114.013221,835,508,20,528,4257,2590,6847
17194,0.196147739,Paxson St & 34th St,1,2,3,0.477121255,20,0.05,0.15,1,1,2,46.83768156,-114.029071,729,373,20,393,3717,1902,5619
17206,0.196147739,Stephens Ave & W Beckwith St,7,3,10,1,20,0.35,0.5,1,2,3,46.86198243,-114.00503,1213,392,20,412,6184,1998,8182
17222,0.196147739,W Front St & N Orange St,1,9,10,1,20,0.05,0.5,1,5,6,46.87189176,-113.998461,672,2516,20,2536,3426,12827,16253
17232,0.196147739,Stephens Ave & Burlington Ave,3,9,12,1.079181246,20,0.15,0.6,0,2,3,46.8546469,-114.01319,870,475,20,495,4435,2422,6857
17242,0.196147739,S Orange St & S 5th St W,8,11,18,1.255272505,20,0.4,0.9,3,4,7,46.8647436,-114.003693,1078,420,20,440,5496,2141,7637
17281,0.196147739,Stephens Ave & Burlington Ave,6,1,7,0.84509804,20,0.3,0.35,1,1,1,46.85533688,-114.012911,910,460,20,480,4639,2345,6984
17286,0.196147739,Stephens Ave & Central Ave,15,11,26,1.414973348,20,0.75,1.3,4,5,9,46.85077866,-114.012971,836,507,20,527,4262,2585,6847
17297,0.196147739,Paxson St & McDonald Ave,4,9,13,1.113943352,20,0.2,0.65,2,3,5,46.83989237,-114.0290786,726,444,20,464,3701,2264,5965
17304,0.196147739,36th St & Paxson St,4,2,5,0.698970004,20,0.2,0.25,1,1,2,46.83649799,-114.029198,805,356,20,376,4104,1815,5919
17305,0.196147739,Dore Ln & 36th St,6,12,19,1.278753601,20,0.3,0.95,3,4,7,46.83636448,-114.035691,755,336,20,356,3849,1713,5562
17340,0.196147739,36th St & Paxson St,0,5,5,0.698970004,20,0,0.25,0,1,1,46.83664979,-114.029212,792,357,20,377,4038,1820,5858
17425,0.196147739,Stephens Ave at Missoula Aging Services,2,2,4,0.602059991,20,0.1,0.2,1,1,1,46.86300433,-114.004145,1189,402,20,422,6062,2049,8111
17430,0.196147739,Stephens Ave & Kensington Ave,4,2,6,0.77815125,20,0.2,0.3,1,1,2,46.85376817,-114.012946,832,491,20,511,4242,2503,6745
17014,0.196147739,W Broadway St and Burton St,15,6,21,1.322219295,22,0.68,0.95,6,3,8,46.8772057,-114.011442,1203,463,22,485,6133,2360,8493
17100,0.196147739,W Broadway St & Scott St,12,4,16,1.204119983,22,0.55,0.73,4,1,5,46.87590748,-114.007056,981,788,22,810,5001,4017,9018
17189,0.196147739,W Broadway St & Owen St,1,3,4,0.602059991,22,0.05,0.18,1,0,1,46.87392814,-114.000498,678,2432,22,2454,3457,12399,15856
17346,0.196147739,N Russell St & W Broadway St,12,1,13,1.113943352,22,0.55,0.59,6,0,6,46.87789342,-114.0164994,991,455,22,477,5052,2320,7372
18008,0.196147739,W Broadway St & May St,3,1,4,0.602059991,22,0.14,0.18,2,1,3,46.87501093,-114.004071,809,1484,22,1506,4124,7566,11690
18010,0.196147739,MT Highway 200 Turnaround,4,5,8,0.903089987,11,0.36,0.73,3,4,7,46.87355555,-113.862706,64,0,11,11,326,0,326
17013,0.196147739,W Broadway St & McCormick St,3,1,4,0.602059991,23,0.13,0.17,1,0,1,46.87441781,-114.001355,711,2245,23,2268,3625,11445,15070
17390,0.196147739,W Broadway St & Burton St,11,12,23,1.361727836,23,0.48,1,4,5,9,46.87751169,-114.011627,1253,464,23,487,6388,2366,8754
17451,0.196147739,E Broadway St & Monroe St,7,6,13,1.113943352,23,0.3,0.57,4,4,7,46.86937999,-113.985336,678,1866,23,1889,3457,9513,12970
17453,0.196147739,W Broadway St & Scott St,13,16,29,1.462397998,23,0.57,1.26,7,8,15,46.87590011,-114.006166,955,974,23,997,4869,4966,9835
18003,0.196147739,W Broadway St & May St,0,0,1,0,23,0,0.04,0,0,1,46.87505446,-114.003459,798,1663,23,1686,4068,8478,12546
17350,0.196147739,E Broadway St & N Adams St,1,8,9,0.954242509,24,0.04,0.38,1,6,7,46.87083626,-113.989455,646,2872,24,2896,3293,14642,17935
17377,0.196147739,E Broadway St & Washington St,0,8,9,0.954242509,24,0,0.38,0,3,4,46.87142699,-113.991405,660,2980,24,3004,3365,15193,18558
17428,0.196147739,E Broadway St & Van Buren St,9,16,25,1.397940009,24,0.38,1.04,7,8,14,46.8690917,-113.983579,622,1313,24,1337,3171,6694,9865
17037,0.196147739,S Higgins Ave & W Front St,22,3,25,1.397940009,26,0.85,0.96,24,22,45,46.86984627,-113.995607,717,2610,26,2636,3655,13306,16961
17043,0.196147739,S Orange St & Cregg Ln,4,4,8,0.903089987,26,0.15,0.31,1,1,3,46.87016732,-114.003222,594,901,26,927,3028,4593,7621
17075,0.196147739,S Higgins Ave & Connell Ave,19,14,33,1.51851394,26,0.73,1.27,3,4,6,46.86219074,-113.997537,1310,471,26,497,6679,2401,9080
17086,0.196147739,S Higgins Ave & Tremont St,2,3,4,0.602059991,26,0.08,0.15,1,1,2,46.86018443,-113.997574,1316,464,26,490,6709,2366,9075
17132,0.196147739,S Orange St & S 2nd St W,5,5,10,1,26,0.19,0.38,1,2,3,46.86767814,-114.003377,802,506,26,532,4089,2580,6669
17135,0.196147739,34th St at Bancroft Pond,13,17,30,1.477121255,26,0.5,1.15,3,4,7,46.83803145,-114.009779,700,359,26,385,3569,1830,5399
17144,0.196147739,S Russell St & McDonald Ave,7,8,14,1.146128036,26,0.27,0.54,2,2,3,46.83951963,-114.018142,803,433,26,459,4094,2208,6302
17145,0.196147739,S Orange St & S 1st St W,3,4,7,0.84509804,26,0.12,0.27,1,2,2,46.86937162,-114.003232,652,754,26,780,3324,3844,7168
17159,0.196147739,Dearborn Ave & S Garfield St,0,4,5,0.698970004,26,0,0.19,0,1,1,46.84712635,-114.024154,699,593,26,619,3564,3023,6587
17183,0.196147739,Fairview Ave & Washburn St,2,14,16,1.204119983,26,0.08,0.62,1,5,6,46.84622224,-114.020649,783,507,26,533,3992,2585,6577
17186,0.196147739,S Higgins Ave & Central Ave,1,2,4,0.602059991,26,0.04,0.15,1,2,3,46.85050154,-113.997478,892,529,26,555,4548,2697,7245
17190,0.196147739,S Higgins Ave & North Ave W,2,5,7,0.84509804,26,0.08,0.27,1,3,4,46.85215043,-113.99752,880,528,26,554,4486,2692,7178
17203,0.196147739,S Higgins Ave & Florence St,3,7,10,1,26,0.12,0.38,2,3,4,46.85806929,-113.997554,1266,474,26,500,6454,2417,8871
17218,0.196147739,S Russell St at Playfair Park,4,6,9,0.954242509,26,0.15,0.35,1,2,2,46.84179123,-114.018151,850,433,26,459,4333,2208,6541
17268,0.196147739,34th St & Stephens Ave,8,10,18,1.255272505,26,0.31,0.69,4,3,7,46.83802965,-114.012996,748,445,26,471,3813,2269,6082
17287,0.196147739,Russell St at YMCA,9,27,36,1.556302501,26,0.35,1.38,2,3,4,46.84369666,-114.018155,868,434,26,460,4425,2213,6638
17298,0.196147739,34th St at Albertson's,26,30,56,1.748188027,26,1,2.15,9,11,20,46.83759278,-114.017171,758,439,26,465,3864,2238,6102
17387,0.196147739,S Orange St & S 2nd St W,2,3,5,0.698970004,26,0.08,0.19,1,1,1,46.86835441,-114.003653,751,541,26,567,3829,2758,6587
17401,0.196147739,Bancroft St & Pattee Creek Dr,1,4,4,0.602059991,26,0.04,0.15,0,1,1,46.8412828,-114.008043,786,500,26,526,4007,2549,6556
17457,0.196147739,S Higgins Ave & Strand Ave,5,9,14,1.146128036,26,0.19,0.54,1,6,7,46.85404281,-113.997534,968,517,26,543,4935,2636,7571
17474,0.196147739,Lincoln Rd & Timberlane St,5,5,10,1,26,0.19,0.38,2,2,3,46.9053306,-113.967267,302,32,26,58,1540,163,1703
17044,0.196147739,S Russell St at Opportunity Resources,22,9,31,1.491361694,27,0.81,1.15,3,1,3,46.84428307,-114.018465,859,441,27,468,4379,2248,6627
17128,0.196147739,Fairview Ave & Washburn St,5,4,8,0.903089987,27,0.19,0.3,2,1,2,46.84608242,-114.019568,799,493,27,520,4073,2513,6586
17158,0.196147739,S Russell St & Russell Park W,10,2,11,1.041392685,27,0.37,0.41,2,1,3,46.83893422,-114.0184431,791,428,27,455,4033,2182,6215
17184,0.196147739,S. Russell St. & Earnest Ave,10,7,16,1.204119983,27,0.37,0.59,3,1,4,46.84172518,-114.01841,852,429,27,456,4344,2187,6531
17207,0.196147739,34th St & Stephens Ave,12,7,19,1.278753601,27,0.44,0.7,4,2,7,46.83788099,-114.012851,740,433,27,460,3773,2208,5981
17209,0.196147739,34th St at Bancroft Pond,14,6,20,1.301029996,27,0.52,0.74,4,3,7,46.83789413,-114.009743,694,348,27,375,3538,1774,5312
17221,0.196147739,S Higgins Ave & Beverly Ave,10,5,15,1.176091259,27,0.37,0.56,5,1,6,46.85441811,-113.997327,997,516,27,543,5083,2631,7714
17255,0.196147739,S Higgins Ave & Keith Ave,6,3,8,0.903089987,27,0.22,0.3,4,1,5,46.85826578,-113.997319,1282,477,27,504,6536,2432,8968
17257,0.196147739,S Higgins Ave & North Ave E,5,2,7,0.84509804,27,0.19,0.26,3,1,4,46.85193734,-113.997286,884,530,27,557,4507,2702,7209
17269,0.196147739,S Higgins Ave & E Sussex Ave,1,1,3,0.477121255,27,0.04,0.11,2,1,3,46.84938705,-113.997248,905,530,27,557,4614,2702,7316
17316,0.196147739,N Higgins Ave & E Front St,1,11,11,1.041392685,27,0.04,0.41,2,17,18,46.87017786,-113.9951,703,2809,27,2836,3584,14321,17905
17355,0.196147739,S Higgins Ave & University Ave,4,4,7,0.84509804,27,0.15,0.26,2,1,3,46.86030472,-113.997339,1317,468,27,495,6714,2386,9100
17386,0.196147739,34th St at Albertson's,34,19,53,1.72427587,27,1.26,1.96,9,7,15,46.83742394,-114.016534,745,434,27,461,3798,2213,6011
17408,0.196147739,S Higgins Ave & Connell Ave,27,22,48,1.681241237,27,1,1.78,4,3,6,46.862349,-113.997328,1316,475,27,502,6709,2422,9131
17424,0.196147739,S Higgins Ave & E Central Ave,2,2,4,0.602059991,27,0.07,0.15,2,0,2,46.85075899,-113.997284,892,530,27,557,4548,2702,7250
17244,0.196147739,Connell Ave & Maurice Ave (UM Music Building),30,40,69,1.838849091,14,2.14,4.93,8,8,16,46.86229341,-113.986826,1353,549,14,563,6898,2799,9697
17306,0.196147739,Bancroft St & Benton Ave,3,8,11,1.041392685,28,0.11,0.39,1,0,1,46.84563368,-114.007731,811,507,28,535,4135,2585,6720
17421,0.196147739,S Higgins Ave & S 5th St,14,15,29,1.462397998,28,0.5,1.04,4,3,7,46.864744,-113.997576,1213,601,28,629,6184,3064,9248
17143,0.196147739,Bancroft St & Dearborn Ave,12,14,26,1.414973348,29,0.41,0.9,0,0,0,46.84712618,-114.007754,827,507,29,536,4216,2585,6801
17448,0.196147739,Bancroft St & Dearborn Ave,16,9,25,1.397940009,30,0.53,0.83,0,1,2,46.84664686,-114.007967,820,507,30,537,4181,2585,6766
17166,0.196147739,Bancroft St & Salish Ct,11,3,14,1.146128036,31,0.35,0.45,2,1,2,46.84340961,-114.0077439,800,507,31,538,4079,2585,6664
17247,0.196147739,Bancroft St & Benton Ave,4,3,7,0.84509804,34,0.12,0.21,0,1,1,46.8451105,-114.007992,805,507,34,541,4104,2585,6689
17081,0.196147739,S Higgins Ave & S 5th St E,10,18,27,1.431363764,35,0.29,0.77,3,6,8,46.86519217,-113.997354,1174,725,35,760,5985,3696,9681
17175,0.196147739,Bancroft St at Splash Montana,10,13,24,1.380211242,35,0.29,0.69,1,1,2,46.84287814,-114.008013,797,507,35,542,4063,2585,6648
17389,0.196147739,39th St at Missoula Fresh Market,19,18,37,1.568201724,39,0.49,0.95,7,5,11,46.83434879,-114.041015,584,118,39,157,2977,602,3579
17030,0.196147739,South Ave W & Kemp St,4,2,6,0.77815125,40,0.1,0.15,2,2,3,46.84873909,-114.029649,938,651,40,691,4782,3319,8101
17034,0.196147739,South Ave W & Eaton St,1,4,5,0.698970004,40,0.03,0.13,0,1,1,46.84885816,-114.034105,1086,651,40,691,5537,3319,8856
17052,0.196147739,E Broadway St & N Adams St,18,6,24,1.380211242,40,0.45,0.6,8,2,10,46.87063466,-113.989479,641,2920,40,2960,3268,14887,18155
17084,0.196147739,South Ave W & Eaton St,2,1,3,0.477121255,40,0.05,0.08,1,0,1,46.84871685,-114.034487,1059,649,40,689,5399,3309,8708
17174,0.196147739,South Ave W & 26th Ave,12,1,13,1.113943352,40,0.3,0.33,4,1,5,46.848681,-114.042118,448,205,40,245,2284,1045,3329
17278,0.196147739,South Ave W & S Clark St,20,3,22,1.342422681,40,0.5,0.55,8,1,9,46.84866233,-114.037763,840,492,40,532,4282,2508,6790
17301,0.196147739,South Ave W & S Reserve St,6,22,27,1.431363764,40,0.15,0.68,2,7,9,46.84885232,-114.040888,580,283,40,323,2957,1443,4400
17441,0.196147739,South Ave W & S Clark St,4,15,19,1.278753601,40,0.1,0.48,1,6,7,46.84884811,-114.036622,961,561,40,601,4899,2860,7759
17445,0.196147739,South Ave W & Kemp St,1,3,3,0.477121255,40,0.03,0.08,0,2,2,46.848864,-114.029976,968,651,40,691,4935,3319,8254
17483,0.196147739,Weeping Willow Dr at Walmart,76,72,148,2.170261715,20,3.8,7.4,46,46,91,46.83227589,-114.046515,320,48,20,68,1631,245,1876
17068,0.196147739,Old Fort Rd & Fort Rd,3,1,5,0.698970004,46,0.07,0.11,2,0,2,46.84741335,-114.043638,231,125,46,171,1178,637,1815
17334,0.196147739,South Ave W & Old Fort Rd,3,11,14,1.146128036,46,0.07,0.3,1,4,5,46.84820199,-114.043871,285,115,46,161,1453,586,2039
17017,0.196147739,E Front St & S Pattee St,4,3,7,0.84509804,47,0.09,0.15,1,1,1,46.86965371,-113.993484,736,2794,47,2841,3752,14244,17996
17032,0.196147739,Palmer St at State Office Complex,30,29,59,1.770852012,47,0.64,1.26,4,3,8,46.88694968,-114.030211,137,465,47,512,698,2371,3069
17055,0.196147739,N Russell St & River Rd,3,12,15,1.176091259,47,0.06,0.32,1,2,2,46.87433475,-114.018713,616,336,47,383,3140,1713,4853
17088,0.196147739,Russell St and Milwaukee Way,45,79,123,2.089905111,47,0.96,2.62,10,16,26,46.87071931,-114.0186862,667,307,47,354,3400,1565,4965
17091,0.196147739,N Russell St & Howell St,17,32,49,1.69019608,47,0.36,1.04,5,7,12,46.8818564,-114.018368,940,465,47,512,4792,2371,7163
17123,0.196147739,S Johnson St & S 12th St W,9,17,26,1.414973348,47,0.19,0.55,3,5,7,46.8583471,-114.028318,1043,519,47,566,5317,2646,7963
17140,0.196147739,Phillips St & Burns St,6,17,23,1.361727836,47,0.13,0.49,2,3,5,46.88107702,-114.015263,1427,465,47,512,7275,2371,9646
17152,0.196147739,S Johnson St & S 4th St W,15,12,27,1.431363764,47,0.32,0.57,3,3,6,46.86594646,-114.02827,1121,183,47,230,5715,933,6648
17252,0.196147739,Phillips St & Shakespeare St,13,19,32,1.505149978,47,0.28,0.68,2,2,4,46.88106069,-114.009664,1524,465,47,512,7770,2371,10141
17253,0.196147739,South Ave W & Holborn St,32,27,59,1.770852012,47,0.68,1.26,2,2,4,46.84892614,-114.010453,836,507,47,554,4262,2585,6847
17311,0.196147739,South Ave W & Bow St,32,25,58,1.763427994,47,0.68,1.23,3,2,4,46.84872708,-114.009386,837,507,47,554,4267,2585,6852
17312,0.196147739,S Johnson St & S 10th St W,11,15,25,1.397940009,47,0.23,0.53,3,3,5,46.860308,-114.028307,1191,364,47,411,6072,1856,7928
17431,0.196147739,S Johnson St & S 8th St W,6,9,15,1.176091259,47,0.13,0.32,3,3,5,46.86225452,-114.028295,1339,218,47,265,6826,1111,7937
17438,0.196147739,N Russell St & Turner St,22,25,47,1.672097858,47,0.47,1,9,5,13,46.88590007,-114.018329,868,465,47,512,4425,2371,6796
17440,0.196147739,E Front St & Lambros Dr,48,44,92,1.963787827,47,1.02,1.96,12,12,24,46.8692143,-113.99072,743,2717,47,2764,3788,13852,17640
17442,0.196147739,Great Northern Ave & Union Pacific St,83,97,180,2.255272505,47,1.77,3.83,32,34,66,46.88804182,-114.035751,151,425,47,472,770,2167,2937
17458,0.196147739,S Johnson St & Strand Ave,6,13,19,1.278753601,47,0.13,0.4,2,4,6,46.85407389,-114.028302,1133,651,47,698,5776,3319,9095
17463,0.196147739,Commerce & Industry,2,8,11,1.041392685,47,0.04,0.23,0,1,1,46.89135038,-114.026084,137,465,47,512,698,2371,3069
17470,0.196147739,Railroad & Well St.,2,4,5,0.698970004,47,0.04,0.11,0,1,2,46.88989131,-114.021331,243,465,47,512,1239,2371,3610
17010,0.196147739,S Johnson St & S 8th St W,9,6,15,1.176091259,48,0.19,0.31,2,2,4,46.86236598,-114.028063,1351,211,48,259,6888,1076,7964
17036,0.196147739,Palmer St at State Office Complex,24,22,46,1.662757832,48,0.5,0.96,2,2,4,46.887077,-114.030199,137,465,48,513,698,2371,3069
17045,0.196147739,N Russell St & Maple St,31,15,46,1.662757832,48,0.65,0.96,5,4,9,46.88166977,-114.01858,893,465,48,513,4553,2371,6924
17070,0.196147739,Phillips St & Scott St,16,15,31,1.491361694,48,0.33,0.65,4,5,8,46.88065717,-114.006412,1316,484,48,532,6709,2468,9177
17077,0.196147739,N Russell St & River Rd,6,4,10,1,48,0.13,0.21,1,1,2,46.87436747,-114.0184004,628,346,48,394,3202,1764,4966
17106,0.196147739,S Johnson St & S 4th St W,9,19,27,1.431363764,48,0.19,0.56,2,4,6,46.86620116,-114.028061,1090,183,48,231,5557,933,6490
17121,0.196147739,S Johnson St & Strand Ave,13,9,22,1.342422681,48,0.27,0.46,4,4,7,46.85442131,-114.028127,1104,651,48,699,5628,3319,8947
17124,0.196147739,W Spruce St & Nora St,59,55,113,2.053078443,48,1.23,2.35,10,17,27,46.87765367,-114.005065,1109,1142,48,1190,5654,5822,11476
17212,0.196147739,S Russell St & S 1st St W,27,16,43,1.633468456,48,0.56,0.9,4,3,7,46.8687642,-114.018398,857,316,48,364,4369,1611,5980
17233,0.196147739,Phillips St & Shakespeare St,17,11,28,1.447158031,48,0.35,0.58,4,3,6,46.88092345,-114.009664,1525,465,48,513,7775,2371,10146
17270,0.196147739,W Spruce St & McCormick St,22,31,52,1.716003344,48,0.46,1.08,3,6,10,46.87627517,-114.000401,793,2464,48,2512,4043,12562,16605
17329,0.196147739,Great Northern Ave & Union Pacific St,95,62,157,2.195899652,48,1.98,3.27,32,25,57,46.88835767,-114.035519,148,433,48,481,755,2208,2963
17331,0.196147739,Phillips St & Burns St,18,5,22,1.342422681,48,0.38,0.46,3,2,5,46.88094577,-114.015109,1439,465,48,513,7336,2371,9707
17360,0.196147739,N Russell St & S Palmer St,25,17,42,1.62324929,48,0.52,0.88,7,6,12,46.88590022,-114.018579,833,465,48,513,4247,2371,6618
17373,0.196147739,S Johnson St & S 10th St W,20,10,30,1.477121255,48,0.42,0.63,3,3,6,46.86031794,-114.0281081,1194,362,48,410,6087,1846,7933
17400,0.196147739,S Johnson St & 12th St W,17,12,30,1.477121255,48,0.35,0.63,5,3,7,46.85870727,-114.028094,1057,490,48,538,5389,2498,7887
17434,0.196147739,Russell St & Dakota St,26,21,46,1.662757832,48,0.54,0.96,5,3,8,46.87100705,-114.0183961,659,316,48,364,3360,1611,4971
17460,0.196147739,Palmer St & Latimer St,9,19,28,1.447158031,48,0.19,0.58,1,4,5,46.88709425,-114.03316,137,465,48,513,698,2371,3069
17462,0.196147739,Commerce & Industry,3,2,6,0.77815125,48,0.06,0.13,1,0,1,46.89146744,-114.025594,137,465,48,513,698,2371,3069
17471,0.196147739,Railroad & Well St.,4,2,7,0.84509804,48,0.08,0.15,1,1,1,46.88975469,-114.021388,246,465,48,513,1254,2371,3625
17116,0.196147739,Great Northern Ave & American Way,28,69,97,1.986771734,53,0.53,1.83,13,34,47,46.89038335,-114.035756,151,424,53,477,770,2162,2932
17254,0.196147739,S 3rd St W & S Johnson St,11,11,22,1.342422681,53,0.21,0.42,2,3,5,46.86708256,-114.026052,985,183,53,236,5022,933,5955
17284,0.196147739,Latimer St & W Broadway St,1,3,4,0.602059991,53,0.02,0.08,0,1,1,46.89149665,-114.031841,137,465,53,518,698,2371,3069
17459,0.196147739,S 3rd St W & Catlin St,50,42,92,1.963787827,53,0.94,1.74,11,8,18,46.86710359,-114.022742,1013,196,53,249,5164,999,6163
17097,0.196147739,S 3rd St W & S Catlin St,47,39,86,1.934498451,54,0.87,1.59,10,9,18,46.86691549,-114.021698,1042,220,54,274,5312,1122,6434
17384,0.196147739,S 3rd St W & S Johnson St,14,9,23,1.361727836,54,0.26,0.43,3,1,4,46.86692392,-114.027556,995,183,54,237,5073,933,6006
18017,0.196147739,W Broadway St & Maple St,26,20,46,1.662757832,55,0.47,0.84,6,6,11,46.88168087,-114.022771,252,439,55,494,1285,2238,3523
17153,0.196147739,Latimer St & W Broadway St,1,2,2,0.301029996,56,0.02,0.04,0,0,0,46.89134121,-114.031741,137,465,56,521,698,2371,3069
17198,0.196147739,Great Northern Ave & American Way,51,27,78,1.892094603,56,0.91,1.39,17,9,25,46.89037564,-114.035571,149,430,56,486,760,2192,2952
18014,0.196147739,W Broadway St & Maple St,10,11,20,1.301029996,56,0.18,0.36,2,2,3,46.88192985,-114.022561,265,447,56,503,1351,2279,3630
18016,0.196147739,W Broadway St & Sherwood St,24,48,71,1.851258349,58,0.41,1.22,3,8,12,46.87959174,-114.020718,526,423,58,481,2682,2157,4839
18020,0.196147739,S Johnson St & Central Ave,3,18,20,1.301029996,61,0.05,0.33,2,6,8,46.85048875,-114.028286,1067,651,61,712,5440,3319,8759
17038,0.196147739,S Johnson St & Central Ave,13,4,16,1.204119983,62,0.21,0.26,3,1,4,46.85084097,-114.0280742,1092,651,62,713,5567,3319,8886
17064,0.196147739,Arthur Ave & Evans Ave,3,4,7,0.84509804,64,0.05,0.11,1,2,2,46.85571653,-113.989338,1197,551,64,615,6103,2809,8912
17074,0.196147739,Arthur Ave & University Ave,62,41,102,2.008600172,64,0.97,1.59,10,4,13,46.86028418,-113.989357,1364,551,64,615,6954,2809,9763
17089,0.196147739,Arthur Ave & Keith Ave,27,12,38,1.579783597,64,0.42,0.59,5,1,6,46.85829958,-113.989345,1310,551,64,615,6679,2809,9488
17154,0.196147739,South Ave E & Hilda Ave,6,11,17,1.230448921,64,0.09,0.27,2,2,4,46.84889218,-113.992737,965,550,64,614,4920,2804,7724
17193,0.196147739,South Ave E & Gerald Ave,4,21,26,1.414973348,64,0.06,0.41,3,1,4,46.84887092,-113.995592,923,538,64,602,4706,2743,7449
17196,0.196147739,Arthur Ave & Connell Ave,33,34,66,1.819543936,64,0.52,1.03,7,5,11,46.86162821,-113.989356,1385,551,64,615,7061,2809,9870
17211,0.196147739,Arthur Ave & Beverly Ave,5,6,11,1.041392685,64,0.08,0.17,2,2,4,46.85372882,-113.989321,1116,551,64,615,5690,2809,8499
17225,0.196147739,South Ave E & Arthur Ave,10,11,21,1.322219295,64,0.16,0.33,4,5,8,46.84890355,-113.989717,921,506,64,570,4695,2580,7275
17345,0.196147739,Arthur Ave & E Central Ave,5,8,13,1.113943352,64,0.08,0.2,3,2,4,46.85079314,-113.9893,1018,537,64,601,5190,2738,7928
17012,0.196147739,Arthur Ave & Woodworth Ave,5,5,9,0.954242509,65,0.08,0.14,2,2,4,46.85293851,-113.989131,1096,551,65,616,5588,2809,8397
17066,0.196147739,Scott St & Cooper St,58,88,146,2.164352856,65,0.89,2.25,18,31,48,46.87859864,-114.006201,1262,763,65,828,6434,3890,10324
17069,0.196147739,Arthur Ave & Beverly Ave,5,4,9,0.954242509,65,0.08,0.14,1,1,2,46.8543913,-113.989136,1141,551,65,616,5817,2809,8626
17108,0.196147739,Arthur Ave & Daly Ave,70,57,127,2.103803721,65,1.08,1.95,9,9,19,46.86142447,-113.989204,1381,551,65,616,7041,2809,9850
17146,0.196147739,South Ave E & Gerald Ave,38,6,44,1.643452676,65,0.58,0.68,4,3,7,46.84875135,-113.995256,927,540,65,605,4726,2753,7479
17176,0.196147739,E Main St & N Adams St,38,68,105,2.021189299,65,0.58,1.62,11,16,26,46.87016821,-113.990429,656,2994,65,3059,3344,15264,18608
17224,0.196147739,Madison St & E Main St,11,32,43,1.633468456,65,0.17,0.66,1,11,12,46.86984831,-113.987836,689,2691,65,2756,3513,13719,17232
17292,0.196147739,Scott St & Sherwood St,5,12,16,1.204119983,65,0.08,0.25,2,3,6,46.8803325,-114.006198,1304,528,65,593,6648,2692,9340
17299,0.196147739,South Ave E & Granite Ct,20,6,25,1.397940009,65,0.31,0.38,3,2,5,46.84870963,-113.991783,968,547,65,612,4935,2789,7724
17313,0.196147739,Arthur Ave & Keith Ave,36,92,128,2.10720997,65,0.55,1.97,5,14,18,46.85866921,-113.989174,1321,551,65,616,6735,2809,9544
17341,0.196147739,W Spruce St & McCormick St,31,25,56,1.748188027,65,0.48,0.86,7,4,10,46.87640388,-114.000413,801,2424,65,2489,4084,12358,16442
17403,0.196147739,Arthur Ave & E Central Ave,9,6,14,1.146128036,65,0.14,0.22,2,2,4,46.85083634,-113.989121,1019,536,65,601,5195,2733,7928
17435,0.196147739,South Ave E & Arthur Ave,17,11,28,1.447158031,65,0.26,0.43,5,4,9,46.848753,-113.989549,906,499,65,564,4619,2544,7163
17051,0.196147739,Brooks St at the Montana Club,16,11,26,1.414973348,67,0.24,0.39,4,4,7,46.84675462,-114.020851,770,527,67,594,3926,2687,6613
17058,0.196147739,South Ave W & S Catlin St,2,25,26,1.414973348,67,0.03,0.39,0,3,3,46.84896623,-114.022338,729,611,67,678,3717,3115,6832
17060,0.196147739,South Ave W & Fair Way,29,19,49,1.69019608,67,0.43,0.73,8,6,13,46.848772,-114.014236,829,510,67,577,4226,2600,6826
17216,0.196147739,Brooks St & Oxford St,32,37,68,1.832508913,67,0.48,1.01,7,10,17,46.84976827,-114.016893,812,541,67,608,4140,2758,6898
17274,0.196147739,W Sussex Ave & Stephens Ave,10,22,31,1.491361694,67,0.15,0.46,2,4,5,46.84983151,-114.01378,837,511,67,578,4267,2605,6872
17008,0.196147739,South Ave W & Park St,5,11,15,1.176091259,73,0.07,0.21,1,2,3,46.84891757,-114.00301,867,507,73,580,4420,2585,7005
17105,0.196147739,South Ave W & Lester St,17,16,32,1.505149978,73,0.23,0.44,5,4,9,46.8489129,-113.998987,893,521,73,594,4553,2656,7209
17109,0.196147739,South Ave W & Queen St,6,23,29,1.462397998,73,0.08,0.4,0,1,2,46.84893318,-114.005965,854,507,73,580,4354,2585,6939
17020,0.196147739,South Ave W & Park St,12,6,17,1.230448921,74,0.16,0.23,1,0,2,46.84874289,-114.00249,869,507,74,581,4430,2585,7015
17223,0.196147739,South Ave W & Queen St,30,5,35,1.544068044,74,0.41,0.47,2,1,3,46.84873315,-114.005949,853,507,74,581,4349,2585,6934
17392,0.196147739,South Ave W & Lester St,13,16,29,1.462397998,74,0.18,0.39,3,5,8,46.84876441,-113.998104,901,525,74,599,4593,2677,7270
17481,0.196147739,Arthur Ave & Eddy Ave,21,38,59,1.770852012,78,0.27,0.76,6,7,13,46.86315986,-113.989365,1396,551,78,629,7117,2809,9926
17433,0.196147739,Arthur Ave & Eddy Ave,28,22,50,1.698970004,79,0.35,0.63,3,7,10,46.86315188,-113.989186,1393,551,79,630,7102,2809,9911
17378,0.196147739,South Ave W & S Grant St,11,5,15,1.176091259,88,0.13,0.17,2,1,3,46.84892888,-114.026795,820,651,88,739,4181,3319,7500
17475,0.196147739,Missoula Community Medical Center,49,61,109,2.037426498,92,0.53,1.18,16,19,35,46.84687699,-114.047625,157,88,92,180,800,449,1249
17273,0.196147739,South Ave W & S Garfield St,29,16,45,1.653212514,94,0.31,0.48,5,4,8,46.84877145,-114.024588,725,643,94,737,3696,3278,6974
17126,0.196147739,W Main St & Ryman St,5,79,85,1.929418926,112,0.04,0.76,2,26,27,46.87203275,-113.995814,703,3028,112,3140,3584,15437,19021
17454,0.196147739,Southgate Mall West,167,208,375,2.574031268,128,1.3,2.93,67,82,149,46.84675142,-114.02658,670,630,128,758,3416,3212,6628
17213,0.196147739,Southgate Mall East,230,218,447,2.650307523,141,1.63,3.17,84,78,162,46.84680279,-114.026343,672,627,141,768,3426,3197,6623
17240,0.196147739,Mountain Line Transfer Center,1298,1379,2677,3.427648371,219,5.93,12.22,431,425,856,46.873797,-113.995609,716,2928,219,3147,3650,14928,18578
17195,0.196147739,Smoke Jumper Center,4,3,7,0.84509804,10,0.4,0.7,0,0,0,46.92421673,-114.08799,60,56,10,66,306,285,591
